[
  {"name": "Holyrood 9A",
   "id" : "holyrood-9a",
		"taps" : {
			"keg" : ">20",
			"cask" : "4"
		},
   		"address": "9A Holyrood Road",
		"website" : "www.theholyrood.co.uk",
		"telephone" : "131 556 5044",
		"latitude" : "55.949407",
		"longitude" : "-3.182739",
		"description" : "Real ales and craft beers abound in a relaxed, wood-panelled pub offering gourmet burgers.",
   		"type" : "bar"
	},
	{"name": "The Fountain",
     "id" : "the-fountain",
		"taps" : {
			"keg" : "0",
			"cask" : "4"
		},
   		"address": "131 Dundee Street",
		"website" : "thefountainbar.co.uk",
		"telephone" : "131 556 5044",
		"latitude" : "55.940416",
		"longitude" : "-3.218068",
		"description" : "Pub with a modern makeover offering craft beers and British grub",
   		"type" : "bar"
	},
	{"name": "Red Squirrel",
   	  "id" : "the-red-squirrel",
		"taps" : {
			"keg" : "16",
			"cask" : "4"
		},
   		"address": "21 Lothian Road",
		"website" : "www.redsquirreledinburgh.co.uk",
		"telephone" : "131 229 9933",
		"latitude" : "55.947862",
		"longitude" : "-3.205911",
		"description" : "Many craft beers on draught in this chic, modern bistro pub with a gourmet burger menu",
   		"type" : "bar"
	},
	{"name": "The Southern",
   	  "id" : "the-southern",
		"taps" : {
			"keg" : "16",
			"cask" : "4"
		},
   		"address": "22-26 South Clerk Street",
		"website" : "www.thesouthern.co.uk",
		"telephone" : "131 662 8926",
		"latitude" : "55.940555",
		"longitude" : "-3.180981",
		"description" : "Gourmet burgers, many craft beers in a warm, hospitable setting",
   		"type" : "bar"
	},
	{"name": "The Hanging Bat",
   	  "id" : "the-hanging-bat",
		"taps" : {
			"keg" : "14",
			"cask" : "7"
		},
   		"address": "133 Lothian Road",
		"website" : "www.thehangingbat.com",
		"telephone" : "131 229 0759",
		"latitude" : "55.9455",
		"longitude" : "-3.205182",
		"description" : "Craft beer and microbrew institution with America-inspired bar food",
   		"type" : "bar"
	},
	{"name":"Teuchters Landing",
   	  "id" : "teuchters-landing",
		"taps" : {
			"keg" : "12",
			"cask" : "6"
		},
   		"address": "1c Dock Place, Leith",
		"website" : "www.aroomin.co.uk/teuchters-landing-leith/",
		"telephone" : "131 554 7427",
		"latitude" : "55.977406",
		"longitude" : "-3.17146",
		"description" : "Cosy dockside pub serving a large array of real ales and whiskies, good food",
   		"type" : "bar"
	},
	{"name":"Teuchters",
   	  "id" : "teuchters",
		"taps" : {
			"keg" : "9",
			"cask" : "6"
		},
   		"address": "26 William Street",
		"website" : "www.aroomin.co.uk/teuchters-landing-leith/",
		"telephone" : "131 225 2973",
		"latitude" : "55.949365",
		"longitude" : "-3.212325",
		"description" : "Cosy rustic pub with hand-pulled ales, and good food, set in the new town",
   		"type" : "bar"
	},
	{"name":"Stockbridge Tap",
   	  "id" : "stockbridge-tap",
		"taps" : {
			"keg" : "10",
			"cask" : "7"
		},
   		"address": "2-6 Raeburn Place, Stockbridge",
		"website" : "www.facebook.com/stockbridge.tap",
		"telephone" : "131 343 3000",
		"latitude" : "55.958846",
		"longitude" : "-3.21003",
		"description" : "Camra award-winning real ale and craft beer pub. Burgers on weeknights",
   		"type" : "bar"
	},
	{"name":"Nobles",
   	  "id" : "nobles",
		"taps" : {
			"keg" : "10",
			"cask" : "2"
		},
   		"address": "44a Constitution Street, Leith",
		"website" : "www.noblesbarleith.co.uk",
		"telephone" : "131 629 7215",
		"latitude" : "55.975003",
		"longitude" : "-3.167144",
		"description" : "Elegant Victorian bar with stained-glass windows, local and Scottish craft beer and good food",
   		"type" : "bar"
	},
	{"name":"The Lioness of Leith",
   	  "id" : "the-lioness-of-leith",
		"taps" : {
			"keg" : "6",
			"cask" : "1"
		},
   		"address": "21-25 Duke Street, Leith",
		"website" : "www.facebook.com/Thelionessofleith",
		"telephone" : "131 629 0580",
		"latitude" : "55.970226",
		"longitude" : "-3.170334",
		"description" : "Food-focussed bar/bistro with some craft beer",
   		"type" : "bar"
	},
	{"name":"Brewdow Edinburgh",
   	  "id" : "brewdog-edinburgh",
		"taps" : {
			"keg" : "8",
			"cask" : "0"
		},
   		"address": "143 Cowgate",
		"website" : "www.brewdog.com/bars/edinburgh",
		"telephone" : "1358 724924",
		"latitude" : "55.948493",
		"longitude" : "-3.189388",
		"description" : "No-nonsense chain bar specialising in the Scottish brewery\"s craft beers, with regular guest brew",
   		"type" : "bar"
	},
	{"name":"Golden Rule",
   	  "id" : "golden-rule",
		"taps" : {
			"keg" : "8",
			"cask" : "4"
		},
   		"address": "30 Yeaman Place",
		"website" : "www.goldenruleedinburgh.co.uk",
		"telephone" : "",
		"latitude" : "55.93904",
		"longitude" : "-3.21868",
		"description" : "Cosy, wood-panelled pub for cask ales and craft beer",
   		"type" : "bar"
	},
	{"name":"Caley Sample Room",
   	  "id" : "caley-sample-room",
		"taps" : {
			"keg" : "7",
			"cask" : "8"
		},
   		"address": "42-58 Angle Park Terrace",
		"website" : "www.thecaleysampleroom.co.uk",
		"telephone" : "131 337 7204",
		"latitude" : "55.937846",
		"longitude" : "-3.22558",
		"description" : "Smart gastropub with cask ales and great selection of craft beers",
   		"type" : "bar"
	},
	{"name":"Cask and Barrel",
   	  "id" : "cask-and-barrel",
		"taps" : {
			"keg" : "8",
			"cask" : "10"
		},
		"address":"115 Broughton Street",
		"website" : "",
		"telephone" : "131 556 3132",
		"latitude" : "55.959024",
		"longitude" : "-3.190367",
		"description" : "Traditional real ale boozer",
   		"type" : "bar"
	},
	{"name":"Cask and Barrel Southside",
   	  "id" : "cask-and-barrel-southside",
		"taps" : {
			"keg" : "5",
			"cask" : "8"
		},
		"address":"24-26 West Preston Street",
		"website" : "",
		"telephone" : "131 667 0856",
		"latitude" : "55.938947",
		"longitude" : "-3.180019",
		"description" : "CAMRA award-winning traditional real ale and craft beer pub",
   		"type" : "bar"
	},
	{"name":"Jerimiahs Taproom",
   	  "id" : "jerimiahs-taproom",
		"taps" : {
			"keg" : "6",
			"cask" : "4"
		},
		"address":"24 Henderson Street",
		"website" : "twitter.com/JeremiahTap",
		"telephone" : "131 556 8201",
		"latitude" : "55.958387",
		"longitude" : "-3.183731",
		"description" : "American-style craft beer bar and with great diner food",
   		"type" : "bar"
	},
	{"name":"Flying Dog",
   	  "id" : "flying-dog",
		"taps" : {
			"keg" : "10",
			"cask" : "0"
		},
		"address":"24 Henderson Street, Leith",
		"website" : "www.facebook.com/pages/The-Flying-Dog-Edinburgh/581906748535524",
		"telephone" : "131 467 7712",
		"latitude" : "55.972231",
		"longitude" : "-3.172798",
		"description" : "Small, relaxed hot dog and craft beer bar",
   		"type" : "bar"
	},
	{"name":"Malt and Hops",
   	  "id" : "malt-and-hops",
		"taps" : {
			"keg" : "4",
			"cask" : "8"
		},
		"address":"45 Shore, Leith",
		"website" : "www.barcalisa.com",
		"telephone" : "131 555 0083",
		"latitude" : "55.975848",
		"longitude" : "-3.170014",
		"description" : "Cosy old-fashioned real ale house with craft beer, dating from 1749 with a roaring fire",
   		"type" : "bar"
	},
	{"name":"Kays Bar",
   	  "id" : "keys-bar",
		"taps" : {
			"keg" : "4",
			"cask" : "8"
		},
   		"address": "39 Jamaica Street, New Town",
		"website" : "kaysbar.co.uk",
		"telephone" : "131 225 1858",
		"latitude" : "55.95569",
		"longitude" : "-3.204964",
		"description" : "Cosy Victorian pub with wooden barrel decor, fireplace and good real ale",
   		"type" : "bar"
	},
	{"name":"Blue Blazer",
   	  "id" : "blue-blazer",
		"taps" : {
			"keg" : "6",
			"cask" : "7"
		},
   		"address": "2 Spittal Street",
		"website" : "",
		"telephone" : "131 229 5030",
		"latitude" : "55.945898",
		"longitude" : "-3.203129",
		"description" : "Old-fashioned cask ale and whisky bar",
   		"type" : "bar"
	},
	{"name":"The Abbotsford",
   	  "id" : "the-abbotsford",
		"taps" : {
			"keg" : "6",
			"cask" : "5"
		},
   		"address": "3-5 Rose Street",
		"website" : "www.theabbotsford.com",
		"telephone" : "131 225 5276",
		"latitude" : "55.953288",
		"longitude" : "-3.194557",
		"description" : "Grand Edwardian pub with good selection of craft and cask ale",
   		"type" : "bar"
	},
	{"name":"The Guildford Arms",
   	  "id" : "the-guildford-arms",
		"taps" : {
			"keg" : "5",
			"cask" : "10"
		},
   		"address": "1 West Register Street",
		"website" : "www.guildfordarms.com",
		"telephone" : "131 556 4312",
		"latitude" : "55.95369",
		"longitude" : "-3.190099",
		"description" : "Lively historic Victorian bar with great real ale",
   		"type" : "bar"
	},
	{"name":"The Bow Bar",
   	  "id" : "the-bow-bar",
		"taps" : {
			"keg" : "5",
			"cask" : "8"
		},
   		"address": "80 West Bow",
		"website" : "twitter.com/bow_bar",
		"telephone" : "131 226 7667",
		"latitude" : "55.948428",
		"longitude" : "-3.194385",
		"description" : "Intimate old school real ale bar with exceptional craft beer",
   		"type" : "bar"
	},
	{"name":"Cloisters",
   	  "id" : "cloisters",
		"taps" : {
			"keg" : "3",
			"cask" : "9"
		},
   		"address": "26 Brougham Street",
		"website" : "twitter.com/Cloisters_Bar",
		"telephone" : "131 221 9997",
		"latitude" : "55.943261",
		"longitude" : "-3.202016",
		"description" : "Formerly part of a church now devoted to real ale and craft beers",
   		"type" : "bar"
	},
	{"name":"The Cambridge Bar",
   	  "id" : "the-cambridge-bar",
		"taps" : {
			"keg" : "8",
			"cask" : "2"
		},
   		"address": "20 Young Street",
		"website" : "www.thecambridgebar.co.uk",
		"telephone" : "131 226 2120",
		"latitude" : "55.952801",
		"longitude" : "-3.206079",
		"description" : "Gastropub with great gourmet burgers and a good selection of craft beers",
   		"type" : "bar"
	},
	{"name":"The Auld Hoose",
   	  "id" : "the-auld-hoose",
		"taps" : {
			"keg" : "9",
			"cask" : "3"
		},
   		"address": "23-25 St. Leonard's Street",
		"website" : "www.theauldhoose.co.uk",
		"telephone" : "131 668 2934",
		"latitude" : "55.943243",
		"longitude" : "-3.179863",
		"description" : "Traditional bar with good ale., creaft beer and whisky selection. Metal and punk duke box",
   		"type" : "bar"
	},
	{"name":"Robbies",
   	  "id" : "robbies",
		"taps" : {
			"keg" : "?",
			"cask" : "6"
		},
   		"address": "367 Leith Walk, Leith",
		"website" : "",
		"telephone" : "131 554 6850",
		"latitude" : "55.963743",
		"longitude" : "-3.177555",
		"description" : "Old fashioned Leith local with a few cask ales",
   		"type" : "bar"
	},
	{"name":"The Dagda Bar",
   	  "id" : "the-dagda-bar",
		"taps" : {
			"keg" : "9",
			"cask" : "4"
		},
   		"address": "93-95 Buccleuch Street",
		"website" : "twitter.com/TheDagdaBar",
		"telephone" : "131 667 9773",
		"latitude" : "55.942158",
		"longitude" : "-3.183954",
		"description" : "Cosy real ale bar with real ale and craft beer from Scottish microbreweries",
   		"type" : "bar"
	},
	{"name":"The Haymarket Bar",
   	  "id" : "the-haymarket-bar",
		"taps" : {
			"keg" : "?",
			"cask" : "10"
		},
   		"address": "11-14a West Maitland Street",
		"website" : "www.nicholsonspubs.co.uk/haymarketedinburgh",
		"telephone" : "131 228 2537",
		"latitude" : "55.946433",
		"longitude" : "-3.216256",
		"description" : "Historic ale bar with large selecion of real ales",
   		"type" : "bar"
	},
	{"name":"Halfway House",
   	  "id" : "halfway-house",
		"taps" : {
			"keg" : "?",
			"cask" : "4"
		},
   		"address": "24 Fleshmarket Close",
		"website" : "halfwayhouse-edinburgh.com",
		"telephone" : "131 225 7101",
		"latitude" : "55.950711",
		"longitude" : "-3.188731",
		"description" : "Compact local serving a constantly changing choice of cask ales and craft beers",
   		"type" : "bar"
	},
	{"name":"Cumberland Bar",
   	  "id" : "cumberland-bar",
		"taps" : {
			"keg" : "12",
			"cask" : "8"
		},
   		"address": "1-3 Cumberland Street",
		"website" : "cumberlandbar.co.uk",
		"telephone" : "131 558 3134",
		"latitude" : "55.959025",
		"longitude" : "-3.197165",
		"description" : "Relaxed, cosy, old-school gastropub with real ales and craft beer",
   		"type" : "bar"
	},
	{"name":"The Royal Dick",
   	  "id" : "the-royal-dick",
		"taps" : {
			"keg" : "2",
			"cask" : "2"
		},
   		"address": "1 Summerhall Place",
		"website" : "www.summerhall.co.uk/bar-cafe",
		"telephone" : "845 874 3000",
		"latitude" : "55.939962",
		"longitude" : "-3.181575",
		"description" : "Erstwhile home of Edinburgh Universityâ€™s veterinary college with on-site brewery and good food",
   		"type" : "bar"
	},
	{"name":"The Grey Horse",
   	  "id" : "the-grey-horse",
		"taps" : {
			"keg" : "6",
			"cask" : "5"
		},
   		"address": "20 Main Street, Balerno",
		"website" : "greyhorsebalerno.com",
		"telephone" : "131 449 2888",
		"latitude" : "55.883754",
		"longitude" : "-3.338715",
		"description" : "Cosy real ale pub in the heart of Balerno",
   		"type" : "bar"
	},
	{"name":"The Regent",
   	  "id" : "the-regent",
		"taps" : {
			"keg" : "3",
			"cask" : "4"
		},
   		"address": "2 Montrose Terrace",
		"website" : "theregentbar.co.uk",
		"telephone" : "131 449 2888",
		"latitude" : "55.95639",
		"longitude" : "-3.171987",
		"description" : "Comfy straight-friendly gay real ale bar",
   		"type" : "bar"
	},
	{"name":"The Beer Hive",
   	  "id" : "the-beer-hive",
	  "taps" : {
			"keg" : "2"
		},
		"website" : "www.thebeerhive.co.uk",
		"telephone" : "131 558 9255",
		"latitude" : "55.962186",
		"longitude" : "-3.19608",
		"description" : "",
	 	"address" : "24 Rodney Street",
   		"type" : "shop"
	},
	{"name":"Vino Broughton",
   	  "id" : "vino-broughton",
		"website" : "www.vinowines.co.uk",
		"telephone" : "131 556 2855",
		"latitude" : "55.957942",
		"longitude" : "-3.189406",
		"description" : "",
	 	"address" : "30 Broughton Street",
   		"type" : "shop"
	},
	{"name":"Vino Grange Loan",
   	  "id" : "vino-grange-loan",
		"website" : "www.vinowines.co.uk",
		"telephone" : "131 667 0397",
		"latitude" : "55.933912",
		"longitude" : "-3.178415",
		"description" : "",
	 	"address" : "1 Grange Loan",
   		"type" : "shop"
	},
	{"name":"Cornelius",
   	  "id" : "cornelius",
		"website" : "www.corneliusbeers.com",
		"telephone" : "131 652 2405",
		"latitude" : "55.95662",
		"longitude" : "-3.171672",
		"description" : "",
	 	"address" : "18-20 Easter Road, Abbeyhill",
   		"type" : "shop"
	},
	{"name":"Beets",
   	  "id" : "beets",
		"website" : "www.beetsleith.co.uk",
		"telephone" : "131 476 5086",
		"latitude" : "55.975976",
		"longitude" : "-3.169052",
		"description" : "",
	 	"address" : "49 Bernard Street, Leith",
   		"type" : "shop"
	},
	{"name":"Growler Beers",
   	  "id" : "growler-beers",
	  "taps" : {
		  	"cask" : "4",
			"keg" : "8"
		},
		"website" : "www.growlerbeersuk.com",
		"telephone" : "131 447 0022",
		"latitude" : "55.927886",
		"longitude" : "-3.209198",
		"description" : "",
	 	"address" : "229 Morningside Road",
   		"type" : "shop"
	},
	{"name":"Great Grog",
   	  "id" : "great-grog",
		"website" : "www.greatgrogshop.co.uk",
		"telephone" : "131 667 2855",
		"latitude" : "55.940692",
		"longitude" : "-3.176927",
		"description" : "",
	 	"address" : "2 Dalkeith Road",
   		"type" : "shop"
	},
	{"name":"Cork and Cask",
   	  "id" : "cork-and-cask",
		"website" : "www.corkandcask.co.uk",
		"telephone" : "131 447 7721",
		"latitude" : "55.935105",
		"longitude" : "-3.194534",
		"description" : "",
	 	"address" : "136 Marchmont Road",
   		"type" : "shop"
	}
]